{"type": "FeatureCollection", "features": [{"type":"Feature","geometry":{"type":"Point","coordinates":[36.86215,-1.29221]},"properties":{"cartodb_id":23,"name":"BAHATI DISP","province":"NAIROBI","latitude":-1.29221,"longitude":36.86215}},{"type":"Feature","geometry":{"type":"Point","coordinates":[36.84565,-1.27777]},"properties":{"cartodb_id":1,"name":"PUMWANI DISP","province":"NAIROBI","latitude":-1.27777,"longitude":36.84565}},{"type":"Feature","geometry":{"type":"Point","coordinates":[36.82251,-1.28894]},"properties":{"cartodb_id":2,"name":"RHODES AVENUE & CHEST & T. HEALTH CENTRE","province":"NAIROBI","latitude":-1.28894,"longitude":36.82251}},{"type":"Feature","geometry":{"type":"Point","coordinates":[36.73649,-1.27883]},"properties":{"cartodb_id":3,"name":"RIRUTA CATHOLIC DISP","province":"NAIROBI","latitude":-1.27883,"longitude":36.73649}},{"type":"Feature","geometry":{"type":"Point","coordinates":[36.74052,-1.28405]},"properties":{"cartodb_id":4,"name":"RIRUTA HEALTH CENTRE","province":"NAIROBI","latitude":-1.28405,"longitude":36.74052}},{"type":"Feature","geometry":{"type":"Point","coordinates":[36.84511,-1.28729]},"properties":{"cartodb_id":5,"name":"SHAURI MOYO DISP","province":"NAIROBI","latitude":-1.28729,"longitude":36.84511}},{"type":"Feature","geometry":{"type":"Point","coordinates":[36.85,-1.29]},"properties":{"cartodb_id":6,"name":"SHAURI MOYO SDA DISP NAIROBI","province":"NAIROBI","latitude":-1.29,"longitude":36.85}},{"type":"Feature","geometry":{"type":"Point","coordinates":[36.91808,-1.26916]},"properties":{"cartodb_id":7,"name":"SOWETO/KAYOLE DISP","province":"NAIROBI","latitude":-1.26916,"longitude":36.91808}},{"type":"Feature","geometry":{"type":"Point","coordinates":[36.82471,-1.27904]},"properties":{"cartodb_id":8,"name":"SPECIAL STD DISP","province":"NAIROBI","latitude":-1.27904,"longitude":36.82471}},{"type":"Feature","geometry":{"type":"Point","coordinates":[36.79915,-1.28435]},"properties":{"cartodb_id":9,"name":"STATE HOUSE DISP","province":"NAIROBI","latitude":-1.28435,"longitude":36.79915}},{"type":"Feature","geometry":{"type":"Point","coordinates":[36.80337,-1.27623]},"properties":{"cartodb_id":10,"name":"STATE HOUSE ROAD DISP","province":"NAIROBI","latitude":-1.27623,"longitude":36.80337}},{"type":"Feature","geometry":{"type":"Point","coordinates":[36.80617,-1.29582]},"properties":{"cartodb_id":11,"name":"UHURU AP CAMP DISP","province":"NAIROBI","latitude":-1.29582,"longitude":36.80617}},{"type":"Feature","geometry":{"type":"Point","coordinates":[36.79868,-1.28994]},"properties":{"cartodb_id":12,"name":"ULINZI HOUSE MIR DISP","province":"NAIROBI","latitude":-1.28994,"longitude":36.79868}},{"type":"Feature","geometry":{"type":"Point","coordinates":[36.88726,-1.27931]},"properties":{"cartodb_id":13,"name":"UMOJA HEALTH CENTRE","province":"NAIROBI","latitude":-1.27931,"longitude":36.88726}},{"type":"Feature","geometry":{"type":"Point","coordinates":[36.85362,-1.25503]},"properties":{"cartodb_id":14,"name":"UTALII COLLEGE DISP","province":"NAIROBI","latitude":-1.25503,"longitude":36.85362}},{"type":"Feature","geometry":{"type":"Point","coordinates":[36.71516,-1.27885]},"properties":{"cartodb_id":15,"name":"WAITHAKA HEALTH CENTRE","province":"NAIROBI","latitude":-1.27885,"longitude":36.71516}},{"type":"Feature","geometry":{"type":"Point","coordinates":[36.79847,-1.25851]},"properties":{"cartodb_id":16,"name":"WESTLANDS DISP","province":"NAIROBI","latitude":-1.25851,"longitude":36.79847}},{"type":"Feature","geometry":{"type":"Point","coordinates":[36.801751,-1.260665]},"properties":{"cartodb_id":17,"name":"WESTLANDS HEALTH CENTRE","province":"NAIROBI","latitude":-1.260665,"longitude":36.801751}},{"type":"Feature","geometry":{"type":"Point","coordinates":[36.80738,-1.30921]},"properties":{"cartodb_id":18,"name":"WILSON AIRPORT DISP","province":"NAIROBI","latitude":-1.30921,"longitude":36.80738}},{"type":"Feature","geometry":{"type":"Point","coordinates":[36.77706,-1.30227]},"properties":{"cartodb_id":19,"name":"WOODLEY DISP","province":"NAIROBI","latitude":-1.30227,"longitude":36.77706}},{"type":"Feature","geometry":{"type":"Point","coordinates":[36.95676,-1.28724]},"properties":{"cartodb_id":20,"name":"APTC  EMBAKASI HEALTH CENTRE","province":"NAIROBI","latitude":-1.28724,"longitude":36.95676}},{"type":"Feature","geometry":{"type":"Point","coordinates":[36.77192,-1.30508]},"properties":{"cartodb_id":21,"name":"AYANY ESTATE HEALTH CENTRE","province":"NAIROBI","latitude":-1.30508,"longitude":36.77192}},{"type":"Feature","geometry":{"type":"Point","coordinates":[36.88416,-1.2441]},"properties":{"cartodb_id":22,"name":"BABA DOGO HEALTH CENTRE","province":"NAIROBI","latitude":-1.2441,"longitude":36.88416}},{"type":"Feature","geometry":{"type":"Point","coordinates":[36.861624,-1.286682]},"properties":{"cartodb_id":24,"name":"BAHATI HEALTH CENTRE","province":"NAIROBI","latitude":-1.286682,"longitude":36.861624}},{"type":"Feature","geometry":{"type":"Point","coordinates":[36.83112,-1.27123]},"properties":{"cartodb_id":25,"name":"BORAH ROAD DISP","province":"NAIROBI","latitude":-1.27123,"longitude":36.83112}},{"type":"Feature","geometry":{"type":"Point","coordinates":[36.85212,-1.28334]},"properties":{"cartodb_id":26,"name":"CALIFORNIA HC","province":"NAIROBI","latitude":-1.28334,"longitude":36.85212}},{"type":"Feature","geometry":{"type":"Point","coordinates":[36.84111,-1.26341]},"properties":{"cartodb_id":27,"name":"CATHOLIC DISP","province":"NAIROBI","latitude":-1.26341,"longitude":36.84111}},{"type":"Feature","geometry":{"type":"Point","coordinates":[36.87223,-1.28315]},"properties":{"cartodb_id":28,"name":"CHARLES NEW ROAD HC","province":"NAIROBI","latitude":-1.28315,"longitude":36.87223}},{"type":"Feature","geometry":{"type":"Point","coordinates":[36.85221,-1.26114]},"properties":{"cartodb_id":29,"name":"CRESCENT MEDICAL AID EASTLEIGH","province":"NAIROBI","latitude":-1.26114,"longitude":36.85221}},{"type":"Feature","geometry":{"type":"Point","coordinates":[36.89223,-1.31415]},"properties":{"cartodb_id":30,"name":"CRESCENT MEDICAL AID MUKURU","province":"NAIROBI","latitude":-1.31415,"longitude":36.89223}},{"type":"Feature","geometry":{"type":"Point","coordinates":[36.83111,-1.28141]},"properties":{"cartodb_id":31,"name":"CRESENT MEDICAL AID KENYA","province":"NAIROBI","latitude":-1.28141,"longitude":36.83111}},{"type":"Feature","geometry":{"type":"Point","coordinates":[36.90223,-1.24474]},"properties":{"cartodb_id":32,"name":"DANDORA 2 HEALTH CENTRE","province":"NAIROBI","latitude":-1.24474,"longitude":36.90223}},{"type":"Feature","geometry":{"type":"Point","coordinates":[36.88775,-1.25761]},"properties":{"cartodb_id":33,"name":"DANDORA HEALTH CENTRE","province":"NAIROBI","latitude":-1.25761,"longitude":36.88775}},{"type":"Feature","geometry":{"type":"Point","coordinates":[36.85029,-1.26869]},"properties":{"cartodb_id":34,"name":"EASTLEIGH HEALTH CENTRE","province":"NAIROBI","latitude":-1.26869,"longitude":36.85029}},{"type":"Feature","geometry":{"type":"Point","coordinates":[36.85121,-1.27223]},"properties":{"cartodb_id":35,"name":"EASTLEIGH LINES HC","province":"NAIROBI","latitude":-1.27223,"longitude":36.85121}},{"type":"Feature","geometry":{"type":"Point","coordinates":[36.91262,-1.30795]},"properties":{"cartodb_id":36,"name":"EMBAKASI DISP","province":"NAIROBI","latitude":-1.30795,"longitude":36.91262}},{"type":"Feature","geometry":{"type":"Point","coordinates":[36.830249,-1.253175]},"properties":{"cartodb_id":37,"name":"GETRUDES GARDENS CHILDREN'S HOSPITAL","province":"NAIROBI","latitude":-1.253175,"longitude":36.830249}},{"type":"Feature","geometry":{"type":"Point","coordinates":[36.81763,-1.25736]},"properties":{"cartodb_id":38,"name":"HIGHRIDGE HC","province":"NAIROBI","latitude":-1.25736,"longitude":36.81763}},{"type":"Feature","geometry":{"type":"Point","coordinates":[36.85865,-1.28773]},"properties":{"cartodb_id":39,"name":"HONO CRESCENT HC","province":"NAIROBI","latitude":-1.28773,"longitude":36.85865}},{"type":"Feature","geometry":{"type":"Point","coordinates":[36.85214,-1.26111]},"properties":{"cartodb_id":40,"name":"HURUMA LIONS CLINIC","province":"NAIROBI","latitude":-1.26111,"longitude":36.85214}},{"type":"Feature","geometry":{"type":"Point","coordinates":[36.86157,-1.30783]},"properties":{"cartodb_id":41,"name":"INDUSTRIAL AREA LUNGA/L DISP","province":"NAIROBI","latitude":-1.30783,"longitude":36.86157}},{"type":"Feature","geometry":{"type":"Point","coordinates":[36.83661,-1.29805]},"properties":{"cartodb_id":42,"name":"INDUSTRIAL AREA PRISON HEALTH CENTRE","province":"NAIROBI","latitude":-1.29805,"longitude":36.83661}},{"type":"Feature","geometry":{"type":"Point","coordinates":[36.82171,-1.28358]},"properties":{"cartodb_id":43,"name":"INOCULATION CENTRE DISP","province":"NAIROBI","latitude":-1.28358,"longitude":36.82171}},{"type":"Feature","geometry":{"type":"Point","coordinates":[36.8205,-1.27776]},"properties":{"cartodb_id":44,"name":"JAMIA CRESCENT MEDICAL AID DISP","province":"NAIROBI","latitude":-1.27776,"longitude":36.8205}},{"type":"Feature","geometry":{"type":"Point","coordinates":[36.87117,-1.28896]},"properties":{"cartodb_id":45,"name":"JERICHO HEALTH CENTRE","province":"NAIROBI","latitude":-1.28896,"longitude":36.87117}},{"type":"Feature","geometry":{"type":"Point","coordinates":[36.86548,-1.28258]},"properties":{"cartodb_id":46,"name":"JERUSALEM HEALTH CENTRE","province":"NAIROBI","latitude":-1.28258,"longitude":36.86548}},{"type":"Feature","geometry":{"type":"Point","coordinates":[36.72543,-1.26114]},"properties":{"cartodb_id":47,"name":"KABETE TECHNICAL AND TRADE DISP","province":"NAIROBI","latitude":-1.26114,"longitude":36.72543}},{"type":"Feature","geometry":{"type":"Point","coordinates":[36.91278,-1.18716]},"properties":{"cartodb_id":48,"name":"KAHAWA HEALTH CENTRE","province":"NAIROBI","latitude":-1.18716,"longitude":36.91278}},{"type":"Feature","geometry":{"type":"Point","coordinates":[36.84534,-1.29282]},"properties":{"cartodb_id":49,"name":"KALOLENI SHC","province":"NAIROBI","latitude":-1.29282,"longitude":36.84534}},{"type":"Feature","geometry":{"type":"Point","coordinates":[36.89342,-1.1761]},"properties":{"cartodb_id":50,"name":"KAMITI HEALTH CENTRE","province":"NAIROBI","latitude":-1.1761,"longitude":36.89342}},{"type":"Feature","geometry":{"type":"Point","coordinates":[36.74933,-1.26461]},"properties":{"cartodb_id":51,"name":"KANGEMI HEALTH CENTRE","province":"NAIROBI","latitude":-1.26461,"longitude":36.74933}},{"type":"Feature","geometry":{"type":"Point","coordinates":[36.70876,-1.32211]},"properties":{"cartodb_id":52,"name":"KAREN HEALTH CENTRE","province":"NAIROBI","latitude":-1.32211,"longitude":36.70876}},{"type":"Feature","geometry":{"type":"Point","coordinates":[36.88214,-1.26314]},"properties":{"cartodb_id":53,"name":"KARIOBANGI CATHOLIC DISP","province":"NAIROBI","latitude":-1.26314,"longitude":36.88214}},{"type":"Feature","geometry":{"type":"Point","coordinates":[36.88111,-1.25123]},"properties":{"cartodb_id":54,"name":"KARIOBANGI CHESIRE HOME DISP","province":"NAIROBI","latitude":-1.25123,"longitude":36.88111}},{"type":"Feature","geometry":{"type":"Point","coordinates":[36.87978,-1.25174]},"properties":{"cartodb_id":55,"name":"KARIOBANGI HEALTH CENTRE","province":"NAIROBI","latitude":-1.25174,"longitude":36.87978}},{"type":"Feature","geometry":{"type":"Point","coordinates":[36.87978,-1.25174]},"properties":{"cartodb_id":56,"name":"KARIOBANGI MCH / FP DISP","province":"NAIROBI","latitude":-1.25174,"longitude":36.87978}},{"type":"Feature","geometry":{"type":"Point","coordinates":[36.83552,-1.2763]},"properties":{"cartodb_id":57,"name":"KARIOKOR DISP","province":"NAIROBI","latitude":-1.2763,"longitude":36.83552}},{"type":"Feature","geometry":{"type":"Point","coordinates":[36.90139,-1.21821]},"properties":{"cartodb_id":58,"name":"KASARANI SHC","province":"NAIROBI","latitude":-1.21821,"longitude":36.90139}},{"type":"Feature","geometry":{"type":"Point","coordinates":[36.74052,-1.28405]},"properties":{"cartodb_id":59,"name":"KAWANGWARE HEALTH CENTRE","province":"NAIROBI","latitude":-1.28405,"longitude":36.74052}},{"type":"Feature","geometry":{"type":"Point","coordinates":[36.91668,-1.26649]},"properties":{"cartodb_id":60,"name":"KAYOLE HEALTH CENTRE","province":"NAIROBI","latitude":-1.26649,"longitude":36.91668}},{"type":"Feature","geometry":{"type":"Point","coordinates":[36.806388,-1.300876]},"properties":{"cartodb_id":61,"name":"KENYATTA NATIONAL HOSPITAL","province":"NAIROBI","latitude":-1.300876,"longitude":36.806388}},{"type":"Feature","geometry":{"type":"Point","coordinates":[36.8228,-1.28704]},"properties":{"cartodb_id":62,"name":"KICC DISP","province":"NAIROBI","latitude":-1.28704,"longitude":36.8228}},{"type":"Feature","geometry":{"type":"Point","coordinates":[36.81064,-1.28551]},"properties":{"cartodb_id":63,"name":"LADY NORTH HEALTH CENTRE","province":"NAIROBI","latitude":-1.28551,"longitude":36.81064}},{"type":"Feature","geometry":{"type":"Point","coordinates":[36.8231,-1.28012]},"properties":{"cartodb_id":64,"name":"LAGOS HC","province":"NAIROBI","latitude":-1.28012,"longitude":36.8231}},{"type":"Feature","geometry":{"type":"Point","coordinates":[36.7783,-1.31814]},"properties":{"cartodb_id":65,"name":"LANGATA HEALTH CENTRE","province":"NAIROBI","latitude":-1.31814,"longitude":36.7783}},{"type":"Feature","geometry":{"type":"Point","coordinates":[36.92214,-1.23415]},"properties":{"cartodb_id":66,"name":"LITTLE SISTERS OF ST FRANCIS","province":"NAIROBI","latitude":-1.23415,"longitude":36.92214}},{"type":"Feature","geometry":{"type":"Point","coordinates":[36.82667,-1.29131]},"properties":{"cartodb_id":67,"name":"LOCO HEALTH CENTRE","province":"NAIROBI","latitude":-1.29131,"longitude":36.82667}},{"type":"Feature","geometry":{"type":"Point","coordinates":[36.7447,-1.23768]},"properties":{"cartodb_id":68,"name":"LOWER KABETE SHC","province":"NAIROBI","latitude":-1.23768,"longitude":36.7447}},{"type":"Feature","geometry":{"type":"Point","coordinates":[36.86157,-1.30783]},"properties":{"cartodb_id":69,"name":"LUNGA LUNGA HEALTH CENTRE","province":"NAIROBI","latitude":-1.30783,"longitude":36.86157}},{"type":"Feature","geometry":{"type":"Point","coordinates":[36.87226,-1.29431]},"properties":{"cartodb_id":70,"name":"MAKADARA HC","province":"NAIROBI","latitude":-1.29431,"longitude":36.87226}},{"type":"Feature","geometry":{"type":"Point","coordinates":[36.84754,-1.29394]},"properties":{"cartodb_id":71,"name":"MAKONGENI HC","province":"NAIROBI","latitude":-1.29394,"longitude":36.84754}},{"type":"Feature","geometry":{"type":"Point","coordinates":[36.86451,-1.28894]},"properties":{"cartodb_id":72,"name":"MARINGO HC","province":"NAIROBI","latitude":-1.28894,"longitude":36.86451}},{"type":"Feature","geometry":{"type":"Point","coordinates":[36.833478,-1.305393]},"properties":{"cartodb_id":73,"name":"MATER MISERICORDIAE HOSPITAL","province":"NAIROBI","latitude":-1.305393,"longitude":36.833478}},{"type":"Feature","geometry":{"type":"Point","coordinates":[36.86485,-1.25323]},"properties":{"cartodb_id":74,"name":"MATHARE NORTH HEALTH CENTRE","province":"NAIROBI","latitude":-1.25323,"longitude":36.86485}},{"type":"Feature","geometry":{"type":"Point","coordinates":[36.844302,-1.259489]},"properties":{"cartodb_id":75,"name":"MATHARI MENTAL HOSPITAL","province":"NAIROBI","latitude":-1.259489,"longitude":36.844302}},{"type":"Feature","geometry":{"type":"Point","coordinates":[36.802242,-1.307925]},"properties":{"cartodb_id":76,"name":"MBAGATHI DISTRICT HOSPITAL","province":"NAIROBI","latitude":-1.307925,"longitude":36.802242}},{"type":"Feature","geometry":{"type":"Point","coordinates":[36.8332,-1.2834]},"properties":{"cartodb_id":77,"name":"MUTHURWA DISP","province":"NAIROBI","latitude":-1.2834,"longitude":36.8332}},{"type":"Feature","geometry":{"type":"Point","coordinates":[36.836938,-1.309483]},"properties":{"cartodb_id":78,"name":"NAIROBI SOUTH B HEALTH CENTRE","province":"NAIROBI","latitude":-1.309483,"longitude":36.836938}},{"type":"Feature","geometry":{"type":"Point","coordinates":[36.81121,-1.3101]},"properties":{"cartodb_id":79,"name":"NAIROBI WEST SISTERS DISP","province":"NAIROBI","latitude":-1.3101,"longitude":36.81121}},{"type":"Feature","geometry":{"type":"Point","coordinates":[36.82251,-1.28894]},"properties":{"cartodb_id":80,"name":"NGAIRA AVENUE DISP","province":"NAIROBI","latitude":-1.28894,"longitude":36.82251}},{"type":"Feature","geometry":{"type":"Point","coordinates":[36.83046,-1.27077]},"properties":{"cartodb_id":81,"name":"NGARA HEALTH CENTRE","province":"NAIROBI","latitude":-1.27077,"longitude":36.83046}},{"type":"Feature","geometry":{"type":"Point","coordinates":[36.7576,-1.29896]},"properties":{"cartodb_id":82,"name":"NGONG ROAD SHC","province":"NAIROBI","latitude":-1.29896,"longitude":36.7576}},{"type":"Feature","geometry":{"type":"Point","coordinates":[36.86425,-1.24995]},"properties":{"cartodb_id":83,"name":"NYS HEALTH CENTRE","province":"NAIROBI","latitude":-1.24995,"longitude":36.86425}},{"type":"Feature","geometry":{"type":"Point","coordinates":[36.86425,-1.24995]},"properties":{"cartodb_id":84,"name":"NYS PUBLIC HEALTH","province":"NAIROBI","latitude":-1.24995,"longitude":36.86425}},{"type":"Feature","geometry":{"type":"Point","coordinates":[36.871071,-1.289024]},"properties":{"cartodb_id":85,"name":"OFAFA JERICHO SHC","province":"NAIROBI","latitude":-1.289024,"longitude":36.871071}},{"type":"Feature","geometry":{"type":"Point","coordinates":[36.870483,-1.288752]},"properties":{"cartodb_id":86,"name":"OFAFA NAIROBI HC","province":"NAIROBI","latitude":-1.288752,"longitude":36.870483}},{"type":"Feature","geometry":{"type":"Point","coordinates":[36.872106,-1.247265]},"properties":{"cartodb_id":87,"name":"P & T MCH DISP","province":"NAIROBI","latitude":-1.247265,"longitude":36.872106}},{"type":"Feature","geometry":{"type":"Point","coordinates":[36.83815,-1.26741]},"properties":{"cartodb_id":88,"name":"PANGANI HC","province":"NAIROBI","latitude":-1.26741,"longitude":36.83815}},{"type":"Feature","geometry":{"type":"Point","coordinates":[36.911501,-1.268017]},"properties":{"cartodb_id":89,"name":"PROVIDE INTERNATIONAL DISP","province":"NAIROBI","latitude":-1.268017,"longitude":36.911501}},{"type":"Feature","geometry":{"type":"Point","coordinates":[36.87214,-1.29222]},"properties":{"cartodb_id":90,"name":"BURUBURU GIRLS DISP","province":"NAIROBI","latitude":-1.29222,"longitude":36.87214}},{"type":"Feature","geometry":{"type":"Point","coordinates":[36.88111,-1.29341]},"properties":{"cartodb_id":91,"name":"BURUBURU HIGH SCHOOL CLINIC","province":"NAIROBI","latitude":-1.29341,"longitude":36.88111}},{"type":"Feature","geometry":{"type":"Point","coordinates":[36.82241,-1.29311]},"properties":{"cartodb_id":92,"name":"C. B. K. STAFF CLINIC","province":"NAIROBI","latitude":-1.29311,"longitude":36.82241}},{"type":"Feature","geometry":{"type":"Point","coordinates":[36.69086,-1.27884]},"properties":{"cartodb_id":93,"name":"DAGORETI CHILD CLINIC","province":"NAIROBI","latitude":-1.27884,"longitude":36.69086}},{"type":"Feature","geometry":{"type":"Point","coordinates":[36.697883,-1.264086]},"properties":{"cartodb_id":94,"name":"DAGORETTI APPROVED SCHOOL DISP","province":"NAIROBI","latitude":-1.264086,"longitude":36.697883}},{"type":"Feature","geometry":{"type":"Point","coordinates":[36.96213,-1.29115]},"properties":{"cartodb_id":95,"name":"EMBAKASI GARRISON MED CENTRE","province":"NAIROBI","latitude":-1.29115,"longitude":36.96213}},{"type":"Feature","geometry":{"type":"Point","coordinates":[36.803344,-1.309481]},"properties":{"cartodb_id":96,"name":"FORCES MEMORIAL HOSPITAL","province":"NAIROBI","latitude":-1.309481,"longitude":36.803344}},{"type":"Feature","geometry":{"type":"Point","coordinates":[36.73088,-1.23608]},"properties":{"cartodb_id":97,"name":"GITATHURU APPROVED SCHOOL DISP","province":"NAIROBI","latitude":-1.23608,"longitude":36.73088}},{"type":"Feature","geometry":{"type":"Point","coordinates":[36.86556,-1.24233]},"properties":{"cartodb_id":98,"name":"GSU HEADQUARTERS HEALTH CENTRE","province":"NAIROBI","latitude":-1.24233,"longitude":36.86556}},{"type":"Feature","geometry":{"type":"Point","coordinates":[36.86556,-1.24233]},"properties":{"cartodb_id":99,"name":"GSU HQ MCH / FO CLINIC","province":"NAIROBI","latitude":-1.24233,"longitude":36.86556}},{"type":"Feature","geometry":{"type":"Point","coordinates":[36.78916,-1.30333]},"properties":{"cartodb_id":100,"name":"GSU KIBERA HEALTH CENTRE","province":"NAIROBI","latitude":-1.30333,"longitude":36.78916}},{"type":"Feature","geometry":{"type":"Point","coordinates":[36.95309,-1.29032]},"properties":{"cartodb_id":101,"name":"GSU TRAINING HEALTH CENTRE(EMBAKASI)","province":"NAIROBI","latitude":-1.29032,"longitude":36.95309}},{"type":"Feature","geometry":{"type":"Point","coordinates":[36.91081,-1.32297]},"properties":{"cartodb_id":102,"name":"JKIA HEALTH CENTRE","province":"NAIROBI","latitude":-1.32297,"longitude":36.91081}},{"type":"Feature","geometry":{"type":"Point","coordinates":[36.82,-1.27113]},"properties":{"cartodb_id":103,"name":"K P & L CO. DISP","province":"NAIROBI","latitude":-1.27113,"longitude":36.82}},{"type":"Feature","geometry":{"type":"Point","coordinates":[36.82111,-1.28312]},"properties":{"cartodb_id":104,"name":"K P & T C  (NAIROBI) DISP","province":"NAIROBI","latitude":-1.28312,"longitude":36.82111}},{"type":"Feature","geometry":{"type":"Point","coordinates":[36.76982,-1.37939]},"properties":{"cartodb_id":105,"name":"K.C.C.T MBAGATHI HEALTH CENTRE","province":"NAIROBI","latitude":-1.37939,"longitude":36.76982}},{"type":"Feature","geometry":{"type":"Point","coordinates":[36.73088,-1.23608]},"properties":{"cartodb_id":106,"name":"KABETE APPROVED SCHOOL DISP","province":"NAIROBI","latitude":-1.23608,"longitude":36.73088}},{"type":"Feature","geometry":{"type":"Point","coordinates":[36.73658,-1.23679]},"properties":{"cartodb_id":107,"name":"KABETE JUVENILE REMAND HOME DISP","province":"NAIROBI","latitude":-1.23679,"longitude":36.73658}},{"type":"Feature","geometry":{"type":"Point","coordinates":[36.89343,-1.17611]},"properties":{"cartodb_id":108,"name":"KAMITI G.K. PRISON HOSPITAL","province":"NAIROBI","latitude":-1.17611,"longitude":36.89343}},{"type":"Feature","geometry":{"type":"Point","coordinates":[36.85846,-1.2625]},"properties":{"cartodb_id":109,"name":"KENYA AIR FORCE EASTLEIGH MEDICAL CENTRE","province":"NAIROBI","latitude":-1.2625,"longitude":36.85846}},{"type":"Feature","geometry":{"type":"Point","coordinates":[36.89424,-1.3155]},"properties":{"cartodb_id":110,"name":"KENYA PIPELINE STAFF CLINIC","province":"NAIROBI","latitude":-1.3155,"longitude":36.89424}},{"type":"Feature","geometry":{"type":"Point","coordinates":[36.93214,-1.17123]},"properties":{"cartodb_id":111,"name":"KENYATTA UNIVERSITY CLINIC","province":"NAIROBI","latitude":-1.17123,"longitude":36.93214}},{"type":"Feature","geometry":{"type":"Point","coordinates":[36.77503,-1.31862]},"properties":{"cartodb_id":112,"name":"LANGATA WOMENS PRISONS HEALTH CENTRE","province":"NAIROBI","latitude":-1.31862,"longitude":36.77503}},{"type":"Feature","geometry":{"type":"Point","coordinates":[36.849069,-1.256133]},"properties":{"cartodb_id":113,"name":"MATHARE POLICE DEPARTMENT CLINIC","province":"NAIROBI","latitude":-1.256133,"longitude":36.849069}},{"type":"Feature","geometry":{"type":"Point","coordinates":[36.83028,-1.29911]},"properties":{"cartodb_id":114,"name":"MOPW (SUPPLIES BRANCH) CLINIC","province":"NAIROBI","latitude":-1.29911,"longitude":36.83028}},{"type":"Feature","geometry":{"type":"Point","coordinates":[36.760619,-1.312203]},"properties":{"cartodb_id":115,"name":"NAIROBI JUVENILE DISP","province":"NAIROBI","latitude":-1.312203,"longitude":36.760619}},{"type":"Feature","geometry":{"type":"Point","coordinates":[36.767332,-1.312203]},"properties":{"cartodb_id":116,"name":"NAIROBI MTC CLINIC","province":"NAIROBI","latitude":-1.312203,"longitude":36.767332}},{"type":"Feature","geometry":{"type":"Point","coordinates":[36.75112,-1.31221]},"properties":{"cartodb_id":117,"name":"NAIROBI REMAND & ALLOC. DISP","province":"NAIROBI","latitude":-1.31221,"longitude":36.75112}},{"type":"Feature","geometry":{"type":"Point","coordinates":[36.81505,-1.3112]},"properties":{"cartodb_id":118,"name":"NAIROBI WEST PRISON HEALTH CENTRE","province":"NAIROBI","latitude":-1.3112,"longitude":36.81505}},{"type":"Feature","geometry":{"type":"Point","coordinates":[36.9401,-1.30212]},"properties":{"cartodb_id":119,"name":"NAS DISP","province":"NAIROBI","latitude":-1.30212,"longitude":36.9401}},{"type":"Feature","geometry":{"type":"Point","coordinates":[36.83461,-1.29457]},"properties":{"cartodb_id":120,"name":"NCPD CLINIC","province":"NAIROBI","latitude":-1.29457,"longitude":36.83461}},{"type":"Feature","geometry":{"type":"Point","coordinates":[36.82658,-1.29009]},"properties":{"cartodb_id":121,"name":"RAILWAYS HEADQUARTERS CLINIC","province":"NAIROBI","latitude":-1.29009,"longitude":36.82658}},{"type":"Feature","geometry":{"type":"Point","coordinates":[36.84163,-1.31139]},"properties":{"cartodb_id":122,"name":"RAILWAYS TRAINING SCHOOL CLINIC","province":"NAIROBI","latitude":-1.31139,"longitude":36.84163}},{"type":"Feature","geometry":{"type":"Point","coordinates":[36.827595,-1.311003]},"properties":{"cartodb_id":123,"name":"SOUTH C MOI EDUCATION CENTRE CLINIC","province":"NAIROBI","latitude":-1.311003,"longitude":36.827595}},{"type":"Feature","geometry":{"type":"Point","coordinates":[36.81,-1.27]},"properties":{"cartodb_id":124,"name":"UNIVERSITY OF NAIROBI HEALTH SERVICES","province":"NAIROBI","latitude":-1.27,"longitude":36.81}},{"type":"Feature","geometry":{"type":"Point","coordinates":[36.816607,-1.26245]},"properties":{"cartodb_id":125,"name":"AVENUE NURSING HOME","province":"NAIROBI","latitude":-1.26245,"longitude":36.816607}},{"type":"Feature","geometry":{"type":"Point","coordinates":[36.82251,-1.28894]},"properties":{"cartodb_id":126,"name":"CHEST CLINIC","province":"NAIROBI","latitude":-1.28894,"longitude":36.82251}},{"type":"Feature","geometry":{"type":"Point","coordinates":[36.826936,-1.284809]},"properties":{"cartodb_id":127,"name":"CITY NURSING HOME","province":"NAIROBI","latitude":-1.284809,"longitude":36.826936}},{"type":"Feature","geometry":{"type":"Point","coordinates":[36.796879,-1.29604]},"properties":{"cartodb_id":128,"name":"COPTIC CHURCH NURSING HOME","province":"NAIROBI","latitude":-1.29604,"longitude":36.796879}},{"type":"Feature","geometry":{"type":"Point","coordinates":[36.849835,-1.269494]},"properties":{"cartodb_id":129,"name":"EASTLEIGH COMMUNITY CLINIC & NURSING HOME","province":"NAIROBI","latitude":-1.269494,"longitude":36.849835}},{"type":"Feature","geometry":{"type":"Point","coordinates":[36.823983,-1.305783]},"properties":{"cartodb_id":130,"name":"EQUATOR NURSING HOME","province":"NAIROBI","latitude":-1.305783,"longitude":36.823983}},{"type":"Feature","geometry":{"type":"Point","coordinates":[36.85123,-1.28415]},"properties":{"cartodb_id":131,"name":"FPAK CLINIC (EASTLEIGH)","province":"NAIROBI","latitude":-1.28415,"longitude":36.85123}},{"type":"Feature","geometry":{"type":"Point","coordinates":[36.85001,-1.28112]},"properties":{"cartodb_id":132,"name":"FPAK CLINIC (PHOENIX)","province":"NAIROBI","latitude":-1.28112,"longitude":36.85001}},{"type":"Feature","geometry":{"type":"Point","coordinates":[36.909975,-1.277166]},"properties":{"cartodb_id":133,"name":"HURUMA MATERNITY & NURSING HOME","province":"NAIROBI","latitude":-1.277166,"longitude":36.909975}},{"type":"Feature","geometry":{"type":"Point","coordinates":[36.871434,-1.277577]},"properties":{"cartodb_id":134,"name":"JAMAA MATERNITY HOSPITAL","province":"NAIROBI","latitude":-1.277577,"longitude":36.871434}},{"type":"Feature","geometry":{"type":"Point","coordinates":[36.91278,-1.18716]},"properties":{"cartodb_id":135,"name":"KAHAWA MAT. UNIT","province":"NAIROBI","latitude":-1.18716,"longitude":36.91278}},{"type":"Feature","geometry":{"type":"Point","coordinates":[36.78454,-1.30566]},"properties":{"cartodb_id":136,"name":"KIBERA FP & MATERNITY HOME","province":"NAIROBI","latitude":-1.30566,"longitude":36.78454}},{"type":"Feature","geometry":{"type":"Point","coordinates":[36.918441,-1.272263]},"properties":{"cartodb_id":137,"name":"MARIA NURSING HOME","province":"NAIROBI","latitude":-1.272263,"longitude":36.918441}},{"type":"Feature","geometry":{"type":"Point","coordinates":[36.835889,-1.263849]},"properties":{"cartodb_id":138,"name":"MARIE STOPES NURSING HOME","province":"NAIROBI","latitude":-1.263849,"longitude":36.835889}},{"type":"Feature","geometry":{"type":"Point","coordinates":[36.820049,-1.306259]},"properties":{"cartodb_id":139,"name":"NAIROBI WEST NURSING HOME","province":"NAIROBI","latitude":-1.306259,"longitude":36.820049}},{"type":"Feature","geometry":{"type":"Point","coordinates":[36.7833,-1.28872]},"properties":{"cartodb_id":140,"name":"NATIONAL SPINAL INJURY HOSP.","province":"NAIROBI","latitude":-1.28872,"longitude":36.7833}},{"type":"Feature","geometry":{"type":"Point","coordinates":[36.831304,-1.270708]},"properties":{"cartodb_id":141,"name":"PARK ROAD NURSING HOME","province":"NAIROBI","latitude":-1.270708,"longitude":36.831304}},{"type":"Feature","geometry":{"type":"Point","coordinates":[36.890124,-1.287231]},"properties":{"cartodb_id":142,"name":"PRIME CARE NURSING HOME","province":"NAIROBI","latitude":-1.287231,"longitude":36.890124}},{"type":"Feature","geometry":{"type":"Point","coordinates":[36.844846,-1.278495]},"properties":{"cartodb_id":143,"name":"PUMWANI MATERNITY HOSPITAL","province":"NAIROBI","latitude":-1.278495,"longitude":36.844846}},{"type":"Feature","geometry":{"type":"Point","coordinates":[36.839568,-1.267894]},"properties":{"cartodb_id":144,"name":"RADIANT HEALTH NURSING HOME","province":"NAIROBI","latitude":-1.267894,"longitude":36.839568}},{"type":"Feature","geometry":{"type":"Point","coordinates":[36.82299,-1.28001]},"properties":{"cartodb_id":145,"name":"SPECIAL TREATMENT (STAFF CLINIC)","province":"NAIROBI","latitude":-1.28001,"longitude":36.82299}},{"type":"Feature","geometry":{"type":"Point","coordinates":[36.91678,-1.271791]},"properties":{"cartodb_id":146,"name":"ST. ANNES MATERNITY","province":"NAIROBI","latitude":-1.271791,"longitude":36.91678}},{"type":"Feature","geometry":{"type":"Point","coordinates":[36.80512,-1.30121]},"properties":{"cartodb_id":147,"name":"THE NAIROBI HOSPICE","province":"NAIROBI","latitude":-1.30121,"longitude":36.80512}},{"type":"Feature","geometry":{"type":"Point","coordinates":[36.888084,-1.277871]},"properties":{"cartodb_id":148,"name":"UMOJA MEDICAL AND NURSING HOME (CLINIC)","province":"NAIROBI","latitude":-1.277871,"longitude":36.888084}},{"type":"Feature","geometry":{"type":"Point","coordinates":[36.801751,-1.260665]},"properties":{"cartodb_id":149,"name":"WESTLANDS MAT. UNIT","province":"NAIROBI","latitude":-1.260665,"longitude":36.801751}},{"type":"Feature","geometry":{"type":"Point","coordinates":[36.83507,-1.308071]},"properties":{"cartodb_id":150,"name":"AAR HOSPITAL SOUTH B","province":"NAIROBI","latitude":-1.308071,"longitude":36.83507}},{"type":"Feature","geometry":{"type":"Point","coordinates":[36.822479,-1.259263]},"properties":{"cartodb_id":151,"name":"AGA KHAN HOSPITAL","province":"NAIROBI","latitude":-1.259263,"longitude":36.822479}},{"type":"Feature","geometry":{"type":"Point","coordinates":[36.896184,-1.281106]},"properties":{"cartodb_id":152,"name":"EMMAUS CLINIC","province":"NAIROBI","latitude":-1.281106,"longitude":36.896184}},{"type":"Feature","geometry":{"type":"Point","coordinates":[36.831229,-1.26748]},"properties":{"cartodb_id":153,"name":"GURU NANAK HOSPITAL","province":"NAIROBI","latitude":-1.26748,"longitude":36.831229}},{"type":"Feature","geometry":{"type":"Point","coordinates":[36.795248,-1.291617]},"properties":{"cartodb_id":154,"name":"HURLINGHAM HOSPITAL","province":"NAIROBI","latitude":-1.291617,"longitude":36.795248}},{"type":"Feature","geometry":{"type":"Point","coordinates":[36.782066,-1.297148]},"properties":{"cartodb_id":155,"name":"ISLAMIC REPUBLIC OF IRAN MEDICAL CLINIC","province":"NAIROBI","latitude":-1.297148,"longitude":36.782066}},{"type":"Feature","geometry":{"type":"Point","coordinates":[36.75124,-1.27111]},"properties":{"cartodb_id":156,"name":"KANGEMI GICHAGI DISPENSARY","province":"NAIROBI","latitude":-1.27111,"longitude":36.75124}},{"type":"Feature","geometry":{"type":"Point","coordinates":[36.91743,-1.267542]},"properties":{"cartodb_id":157,"name":"KAYOLE HOSPITAL","province":"NAIROBI","latitude":-1.267542,"longitude":36.91743}},{"type":"Feature","geometry":{"type":"Point","coordinates":[36.812221,-1.262455]},"properties":{"cartodb_id":158,"name":"M P SHAH HOSPITAL","province":"NAIROBI","latitude":-1.262455,"longitude":36.812221}},{"type":"Feature","geometry":{"type":"Point","coordinates":[36.780809,-1.296875]},"properties":{"cartodb_id":159,"name":"MASABA HOSPITAL","province":"NAIROBI","latitude":-1.296875,"longitude":36.780809}},{"type":"Feature","geometry":{"type":"Point","coordinates":[36.874092,-1.285211]},"properties":{"cartodb_id":160,"name":"METROPOLITAN HOSPITAL","province":"NAIROBI","latitude":-1.285211,"longitude":36.874092}},{"type":"Feature","geometry":{"type":"Point","coordinates":[36.803877,-1.294238]},"properties":{"cartodb_id":161,"name":"NAIROBI HOSPITAL","province":"NAIROBI","latitude":-1.294238,"longitude":36.803877}},{"type":"Feature","geometry":{"type":"Point","coordinates":[36.825058,-1.304238]},"properties":{"cartodb_id":162,"name":"NAIROBI WEST HOSPITAL","province":"NAIROBI","latitude":-1.304238,"longitude":36.825058}},{"type":"Feature","geometry":{"type":"Point","coordinates":[36.83721,-1.263462]},"properties":{"cartodb_id":163,"name":"PANGANI CRESCENT MEDICAL AID CLINIC","province":"NAIROBI","latitude":-1.263462,"longitude":36.83721}},{"type":"Feature","geometry":{"type":"Point","coordinates":[36.844222,-1.320719]},"properties":{"cartodb_id":164,"name":"ST. JAMES HOSPITAL","province":"NAIROBI","latitude":-1.320719,"longitude":36.844222}},{"type":"Feature","geometry":{"type":"Point","coordinates":[36.91358,-1.273841]},"properties":{"cartodb_id":165,"name":"ST. MARY'S MEDICAL DISP","province":"NAIROBI","latitude":-1.273841,"longitude":36.91358}},{"type":"Feature","geometry":{"type":"Point","coordinates":[36.890638,-1.285351]},"properties":{"cartodb_id":166,"name":"ST. THOMAS MEDICAL HEALTH SERVICES","province":"NAIROBI","latitude":-1.285351,"longitude":36.890638}},{"type":"Feature","geometry":{"type":"Point","coordinates":[36.879288,-1.269265]},"properties":{"cartodb_id":167,"name":"ST. VERONICA HEALTH SERVICES & LABORATORY","province":"NAIROBI","latitude":-1.269265,"longitude":36.879288}},{"type":"Feature","geometry":{"type":"Point","coordinates":[36.888094,-1.276054]},"properties":{"cartodb_id":168,"name":"VICTORY CENTRAL MEDICAL CLINIC","province":"NAIROBI","latitude":-1.276054,"longitude":36.888094}},{"type":"Feature","geometry":{"type":"Point","coordinates":[36.788914,-1.262842]},"properties":{"cartodb_id":169,"name":"WESTLANDS COTTAGE HOSPITAL","province":"NAIROBI","latitude":-1.262842,"longitude":36.788914}}]}